City_ID,City,Lat,Lng,Max Temp,Humidity,Cloudiness,Wind Speed,Country,Date
0,waitangi,-43.9535,-176.5597,12.12,97,100,2.24,NZ,1692049817
1,nepalgunj,28.05,81.6167,24.59,82,100,1.64,NP,1692049818
2,palmer,42.1584,-72.3287,28.06,62,75,3.09,US,1692049818
3,adamstown,-25.066,-130.1015,21.06,84,99,10.62,PN,1692049818
4,nemuro,43.3236,145.575,15.36,93,100,6.56,JP,1692049818
5,bethel,41.3712,-73.414,28.06,69,0,1.54,US,1692049819
6,tago,9.0211,126.2317,25.08,89,100,1.44,PH,1692049819
7,howrah,22.5892,88.3103,29.0,89,75,0.0,IN,1692049819
8,vilyuchinsk,52.9306,158.4028,15.15,74,1,2.87,RU,1692049819
9,salahonda,2.1019,-78.7217,26.87,81,68,5.97,CO,1692049820
10,swakopmund,-22.6833,14.5333,12.21,83,97,0.45,NA,1692049820
11,altai,46.3722,96.2583,13.79,38,1,2.17,MN,1692049820
12,sechura,-5.5569,-80.8222,25.8,64,91,7.18,PE,1692049820
13,yuzhno-kurilsk,44.0306,145.8556,14.57,90,98,5.55,RU,1692049743
14,kosh-agach,50.0,88.6667,2.57,74,27,1.0,RU,1692049821
15,fort irwin,35.2627,-116.6848,37.9,14,0,4.12,US,1692049574
16,laranjal paulista,-23.0497,-47.8367,17.06,84,94,5.28,BR,1692049821
17,hadibu,12.65,54.0333,26.08,81,100,7.71,YE,1692049721
18,saint croix,17.7397,-64.7388,31.25,62,40,8.75,VI,1692049822
19,port-aux-francais,-49.35,70.2167,5.3,92,100,12.1,TF,1692049718
20,tolanaro,-25.0319,46.9987,22.04,88,75,7.2,MG,1692049822
21,longyearbyen,78.2186,15.6401,8.91,81,75,5.66,SJ,1692049748
22,college,64.8569,-147.8028,20.18,61,75,1.54,US,1692049739
23,tarsus,36.9188,34.8784,29.21,79,5,0.89,TR,1692049823
24,nejo,9.5,35.5,14.69,97,100,1.42,ET,1692049823
25,puerto natales,-51.7236,-72.4875,0.77,76,99,3.04,CL,1692049726
26,caleta de carquin,-11.0925,-77.6267,20.85,75,11,3.96,PE,1692049824
27,grytviken,-54.2811,-36.5092,-4.96,78,66,3.62,GS,1692049824
28,tripoli,32.8752,13.1875,26.36,61,0,7.0,LY,1692049558
29,margaret river,-33.95,115.0667,13.79,73,18,5.92,AU,1692049732
30,murzuq,25.9155,13.9184,30.15,21,0,4.5,LY,1692049791
31,saint-philippe,-21.3585,55.7679,20.77,83,40,7.1,RE,1692049825
32,geraldton,-28.7667,114.6,9.23,93,1,5.66,AU,1692049825
33,aripuana,-9.1667,-60.6333,28.16,40,100,0.89,BR,1692049825
34,bubaque,11.2833,-15.8333,27.01,83,100,4.88,GW,1692049825
35,ellwood city,40.8617,-80.2865,22.04,89,100,1.63,US,1692049826
36,susuman,62.7833,148.1667,20.21,50,99,2.05,RU,1692049764
37,argo,37.6333,22.7333,26.55,63,3,1.53,GR,1692049826
38,ribeira grande,38.5167,-28.7,24.87,90,14,1.34,PT,1692049723
39,wailua homesteads,22.0669,-159.378,29.44,71,20,5.66,US,1692049761
40,port-vila,-17.7338,168.3219,21.78,100,100,2.06,VU,1692049671
41,ivdel',60.6911,60.4206,19.76,69,72,0.66,RU,1692049827
42,albany,42.6001,-73.9662,27.66,64,97,0.45,US,1692049599
43,qaqortoq,60.7167,-46.0333,8.72,75,87,0.78,GL,1692049750
44,letlhakane,-21.4167,25.5833,18.27,25,1,1.17,BW,1692049827
45,olonkinbyen,70.9221,-8.7187,5.87,88,2,6.11,SJ,1692049731
46,hermanus,-34.4187,19.2345,6.0,80,5,2.99,ZA,1692049726
47,marsh harbour,26.5412,-77.0636,29.8,72,44,6.02,BS,1692049828
48,brokopondo,4.75,-55.1667,28.67,69,59,1.08,SR,1692049828
49,mili,6.0815,171.735,29.11,79,99,7.8,MH,1692049828
50,iqaluit,63.7506,-68.5145,10.85,76,20,1.54,CA,1692049727
51,san patricio,28.017,-97.5169,39.4,42,76,6.45,US,1692049776
52,edinburgh of the seven seas,-37.0676,-12.3116,12.77,71,98,4.48,SH,1692049722
53,tsiombe,-25.3,45.4833,20.8,80,62,1.91,MG,1692049834
54,gadzhiyevo,69.2551,33.3362,15.93,95,100,3.49,RU,1692049744
55,papatowai,-46.5619,169.4708,5.77,77,99,1.69,NZ,1692049776
56,kununurra,-15.7667,128.7333,15.99,94,64,2.06,AU,1692049835
57,kapuskasing,49.4169,-82.4331,23.05,46,40,3.6,CA,1692049835
58,aur,8.1499,171.1687,28.79,80,46,7.9,MH,1692049835
59,ola,59.5833,151.2833,16.19,92,99,2.68,RU,1692049783
60,bredasdorp,-34.5322,20.0403,7.5,88,6,1.09,ZA,1692049721
61,berdigestyakh,62.0989,126.6992,14.13,98,100,2.67,RU,1692049837
62,acapulco de juarez,16.8634,-99.8901,29.9,74,100,2.57,MX,1692049669
63,jwaneng,-24.6004,24.7303,14.48,29,27,1.42,BW,1692049837
64,pucon,-39.2822,-71.9543,10.8,97,100,0.27,CL,1692049548
65,port macquarie,-31.4333,152.9167,13.83,80,100,4.26,AU,1692049837
66,haiku-pauwela,20.9219,-156.3051,30.01,61,40,10.29,US,1692049792
67,valdivia,-39.8142,-73.2459,11.36,94,100,3.4,CL,1692049548
68,krasnokamensk,50.0979,118.0369,19.0,74,100,1.51,RU,1692049838
69,san pablo villa de mitla,16.9167,-96.4,23.13,53,100,3.18,MX,1692049838
70,valparaiso,-33.0393,-71.6273,15.82,100,100,4.38,CL,1692049766
71,badger,64.8,-147.5333,20.14,56,75,1.54,US,1692049722
72,tiksi,71.6872,128.8694,5.89,93,61,1.72,RU,1692049731
73,atafu village,-8.5421,-172.5159,28.66,76,89,8.8,TK,1692049730
74,taltal,-25.4,-70.4833,17.4,76,24,1.4,CL,1692049839
75,la passe,45.5549,-0.8967,20.13,87,90,2.33,FR,1692049839
76,west island,-12.1568,96.8225,24.99,78,75,6.17,CC,1692049723
77,stanley,54.868,-1.6985,14.29,94,75,4.63,GB,1692049742
78,sao jose da coroa grande,-8.8978,-35.1478,23.61,75,15,4.89,BR,1692049840
79,daru,-9.0763,143.2092,24.79,78,81,6.24,PG,1692049840
80,faulquemont,49.0471,6.6031,21.04,92,59,3.12,FR,1692049840
81,aweil,8.7682,27.4002,21.08,94,64,2.17,SS,1692049840
82,oranjemund,-28.55,16.4333,11.07,82,0,5.3,NA,1692049747
83,vorgashor,67.5833,63.95,10.04,94,82,2.4,RU,1692049793
84,jamestown,42.097,-79.2353,23.34,78,20,2.57,US,1692049553
85,thulamahashi,-24.7246,31.1994,21.28,27,4,3.2,ZA,1692049841
86,cockburn town,21.4612,-71.1419,28.97,83,17,8.65,TC,1692049463
87,port mathurin,-19.6833,63.4167,22.59,68,13,9.72,MU,1692049739
88,port elizabeth,-33.918,25.5701,13.16,76,20,8.23,ZA,1692049723
89,bandon,51.7469,-8.7425,14.77,94,0,2.63,IE,1692049842
90,klaksvik,62.2266,-6.589,11.51,97,61,5.87,FO,1692049842
91,forster,-32.1667,152.5167,10.72,100,82,3.7,AU,1692049842
92,bilibino,68.0546,166.4372,18.27,55,98,2.24,RU,1692049917
93,arad,46.3333,21.75,21.06,47,0,1.45,RO,1692049918
94,toliara,-23.35,43.6667,19.97,90,8,1.8,MG,1692049918
95,yashkul',46.1711,45.3435,28.31,35,0,6.45,RU,1692049918
96,ushuaia,-54.8,-68.3,-0.19,86,100,7.72,AR,1692049918
97,invercargill,-46.4,168.35,3.34,87,100,0.89,NZ,1692049730
98,kodiak,57.79,-152.4072,11.73,82,100,3.6,US,1692049742
99,ascension,30.2169,-90.9001,39.53,41,40,1.54,US,1692049919
100,akobo,7.4344,3.9497,22.0,98,97,1.57,NG,1692049919
101,nuuk,64.1835,-51.7216,11.34,66,20,3.6,GL,1692049919
102,bardai,11.65,7.2333,21.83,87,93,2.49,NG,1692049920
103,wamba,8.9333,8.6,22.43,93,95,0.89,NG,1692049920
104,malvan,16.0667,73.4667,26.64,76,100,2.78,IN,1692049920
105,happy valley-goose bay,53.3168,-60.3315,14.17,77,100,3.6,CA,1692049743
106,talnakh,69.4865,88.3972,11.23,64,83,1.59,RU,1692049735
107,francisco sa,-16.4758,-43.4883,25.08,44,85,3.73,BR,1692049921
108,benguela,-12.5763,13.4055,19.64,85,20,0.18,AO,1692049921
109,nyurba,63.2842,118.3319,15.27,77,100,1.56,RU,1692049747
110,alamar,23.1583,-82.2769,23.13,71,4,7.01,CU,1692049921
111,kapit,2.0167,112.9333,22.87,99,100,0.36,MY,1692049921
112,karratha,-20.7377,116.8463,17.92,72,10,2.72,AU,1692049749
113,nar'yan-mar,67.6713,53.087,13.91,80,82,3.92,RU,1692049922
114,quezon,7.7303,125.0989,22.83,96,100,0.26,PH,1692049922
115,sitka,57.0531,-135.33,13.94,82,75,3.09,US,1692049922
116,korsakov,46.6328,142.7813,12.91,85,26,6.51,RU,1692049923
117,leninskoye,41.7589,69.3864,16.0,33,0,2.01,KZ,1692049923
118,blackmans bay,-43.0167,147.3167,1.96,91,7,1.91,AU,1692049735
119,ust-nera,64.5667,143.2,22.54,38,99,1.28,RU,1692049741
120,keflavik,64.0049,-22.5624,13.95,87,75,3.09,IS,1692049729
121,guerrero negro,27.9769,-114.0611,25.68,59,5,7.8,MX,1692049924
122,tura,25.5198,90.2201,23.62,94,98,1.48,IN,1692049924
123,whitehorse,60.7161,-135.0538,17.79,43,75,4.63,CA,1692049740
124,avarua,-21.2078,-159.775,24.03,73,75,4.63,CK,1692049727
125,cabo san lucas,22.8909,-109.9124,36.45,55,20,4.12,MX,1692049729
126,dossor,47.5272,52.9811,27.38,21,30,4.44,KZ,1692049925
127,st. john's,47.5649,-52.7093,17.6,93,75,2.57,CA,1692049738
128,herning,56.1393,8.9738,14.75,88,58,1.03,DK,1692049926
129,gilgit,35.9221,74.3087,24.13,63,38,1.5,PK,1692049926
130,mukalla,14.5425,49.1242,32.11,51,75,0.95,YE,1692049926
131,shache,38.4167,77.2406,27.62,11,100,2.94,CN,1692049926
132,hawaiian paradise park,19.5933,-154.9731,27.8,72,0,4.12,US,1692049754
133,tham phannara,8.4204,99.3952,25.95,95,100,0.72,TH,1692049927
134,limulunga,-15.0969,23.1376,15.77,29,0,3.12,ZM,1692049927
135,guarapari,-20.6667,-40.4975,21.53,90,83,0.94,BR,1692049927
136,inhambane,-23.865,35.3833,20.05,83,1,4.92,MZ,1692049927
137,fort mcmurray,56.7268,-111.381,19.77,52,75,7.2,CA,1692049928
138,hamilton,39.1834,-84.5333,27.72,87,75,4.63,US,1692049928
139,sandnessjoen,66.0217,12.6316,15.23,82,75,3.09,NO,1692049928
140,ilulissat,69.2167,-51.1,7.01,81,75,1.54,GL,1692049722
141,tashtagol,52.7657,87.8894,8.43,94,99,0.93,RU,1692049929
142,puerto aysen,-45.4,-72.7,7.01,99,100,1.8,CL,1692049929
143,solnechnyy,50.7214,136.6319,19.17,96,100,2.14,RU,1692049930
144,freetown,8.484,-13.2299,23.84,100,75,4.12,SL,1692049930
145,mogocha,53.7333,119.7667,15.16,96,7,0.72,RU,1692049921
146,smithers,54.7804,-127.1743,22.18,49,75,1.54,CA,1692049779
147,nuriootpa,-34.4833,139.0,6.94,77,0,2.87,AU,1692049930
148,kuqa,41.7278,82.9364,21.92,26,100,3.17,CN,1692049931
149,torghay,49.6339,63.4981,20.46,35,95,2.83,KZ,1692049796
150,namibe,-15.1961,12.1522,15.95,86,4,0.22,AO,1692049931
151,sarmiento,-45.5882,-69.07,11.93,60,100,14.12,AR,1692049931
152,teguise,29.0605,-13.564,22.12,78,20,12.86,ES,1692049931
153,puerto ayora,-0.7393,-90.3518,26.98,82,71,2.24,EC,1692049742
154,gargalianoi,37.0667,21.6333,20.34,65,0,1.53,GR,1692049932
155,moussoro,13.6408,16.4901,29.13,59,31,1.05,TD,1692049932
156,lagoa,39.05,-27.9833,23.55,85,61,5.09,PT,1692049932
157,bryne,58.7354,5.6477,15.13,95,75,3.6,NO,1692049932
158,benghazi,32.1167,20.0667,26.05,67,0,4.12,LY,1692049930
159,berezovo,63.9381,65.0419,16.75,94,89,2.39,RU,1692049933
160,izberbash,42.5696,47.8645,25.05,71,0,4.01,RU,1692049933
161,arraial do cabo,-22.9661,-42.0278,18.98,94,100,4.12,BR,1692049921
162,mejit,10.2753,170.8646,28.49,81,45,8.27,MH,1692049739
163,mount isa,-20.7333,139.5,9.87,81,58,0.0,AU,1692049753
164,codrington,-38.2667,141.9667,3.89,90,8,3.1,AU,1692049759
165,dudinka,69.4058,86.1778,11.46,76,94,1.8,RU,1692049775
166,kapa'a,22.0752,-159.319,30.18,71,20,5.66,US,1692049724
167,prince rupert,54.3161,-130.3201,18.05,72,40,2.57,CA,1692049935
168,ebon,4.582,168.6964,27.49,80,81,4.32,MH,1692049935
169,punta arenas,-53.15,-70.9167,0.12,71,34,6.84,CL,1692049726
170,mount pearl,47.5166,-52.7813,17.14,92,75,2.57,CA,1692049935
171,castlegar,49.2998,-117.6689,39.43,18,0,0.75,CA,1692049935
172,seorinarayan,21.7333,82.5833,25.73,78,85,2.0,IN,1692049936
173,constantia,44.1833,28.65,22.61,69,22,7.98,RO,1692049758
174,yazykovo,55.2199,56.1353,16.84,45,37,1.62,RU,1692049936
175,chitose,42.8194,141.6522,24.25,78,75,4.12,JP,1692049936
176,berezovyy,51.6667,135.7,18.44,94,97,0.68,RU,1692049936
177,minas de marcona,-15.2119,-75.1103,16.61,67,5,4.16,PE,1692049726
178,graaff-reinet,-32.2522,24.5308,9.4,84,42,3.31,ZA,1692049937
179,miandrivazo,-19.5167,45.4667,23.17,62,72,0.4,MG,1692049937
180,i-n-salah,27.1935,2.4607,35.99,12,0,9.44,DZ,1692049937
181,yangon,16.8053,96.1561,24.98,100,100,1.03,MM,1692049937
182,egilsstadir,65.2653,-14.3948,9.95,71,0,1.54,IS,1692049938
183,san jose de jachal,-30.2406,-68.7469,22.69,11,99,0.71,AR,1692049938
184,neem ka thana,27.7333,75.8,27.05,68,100,2.68,IN,1692049938
185,ust'-kut,56.7938,105.7672,18.59,74,100,0.52,RU,1692049938
186,yellowknife,62.456,-114.3525,17.45,64,100,4.12,CA,1692049723
187,fallon,39.4735,-118.7774,33.29,23,75,3.6,US,1692049737
188,pacific grove,36.6177,-121.9166,27.99,79,0,4.92,US,1692049860
189,fale old settlement,-9.3852,-171.2468,28.31,79,96,9.2,TK,1692049785
190,humaita,-7.5061,-63.0208,30.45,45,73,1.49,BR,1692049940
191,richards bay,-28.783,32.0377,19.93,89,44,5.11,ZA,1692049763
192,belo sur tsiribihina,-19.7,44.55,21.59,79,77,1.14,MG,1692049940
193,tashla,51.7716,52.7427,24.5,28,97,2.41,RU,1692049940
194,kristinestad,62.2743,21.376,16.17,88,31,3.42,FI,1692049941
195,hithadhoo,-0.6,73.0833,27.58,75,100,3.55,MV,1692049760
196,iskateley,67.6803,53.1512,13.86,80,85,3.87,RU,1692049745
197,afaahiti,-17.75,-149.2833,26.93,77,77,4.82,PF,1692049730
198,griffith,41.5284,-87.4237,21.7,95,100,3.09,US,1692049942
199,juan griego,11.0817,-63.9655,32.07,66,5,6.69,VE,1692049942
200,culaba,11.6578,124.5425,27.16,83,48,2.98,PH,1692049943
201,huruta,8.15,39.35,15.89,78,37,2.34,ET,1692049943
202,amos,48.5669,-78.1162,19.29,70,99,0.98,CA,1692049943
203,sao vicente,-23.9631,-46.3919,21.1,62,100,0.51,BR,1692049944
204,lompoc,34.6391,-120.4579,26.58,75,75,3.09,US,1692049944
205,severo-yeniseyskiy,60.3725,93.0408,12.96,99,100,0.57,RU,1692049797
206,flying fish cove,-10.4217,105.6791,23.82,88,75,5.66,CX,1692049737
207,chonchi,-42.6128,-73.8092,11.18,94,100,4.81,CL,1692049725
208,margate,51.3813,1.3862,18.72,84,55,1.34,GB,1692049768
209,malango,-2.9627,119.9001,17.71,96,68,1.03,ID,1692049945
210,kilju,40.9642,129.3278,20.37,96,92,1.45,KP,1692049945
211,tamanrasset,22.785,5.5228,30.95,16,40,2.57,DZ,1692049946
212,taoudenni,22.6783,-3.9836,33.89,34,29,7.63,ML,1692049770
213,whitefish,48.4111,-114.3376,34.17,25,0,5.14,US,1692049682
214,breaza de sus,45.1988,25.6558,21.43,50,52,1.93,RO,1692049946
215,lerwick,60.1545,-1.1494,14.0,91,7,0.91,GB,1692049946
216,udachny,66.4167,112.4,11.92,71,76,1.95,RU,1692049732
217,sharlyk,52.9167,54.75,20.23,42,78,1.56,RU,1692049947
218,greymouth,-42.4667,171.2,7.16,89,92,2.76,NZ,1692049657
219,petropavlovsk-kamchatsky,53.0452,158.6483,14.33,88,0,2.0,RU,1692049744
220,princesa isabel,-7.7367,-37.9933,22.46,56,28,7.11,BR,1692049947
221,laem sing,12.4816,102.0738,27.02,86,100,5.66,TH,1692049948
222,anadyr,64.75,177.4833,17.28,51,0,4.0,RU,1692049948
223,bhopal,23.2667,77.4,23.13,94,75,1.03,IN,1692049948
224,tondano,1.3038,124.9112,18.05,95,85,1.62,ID,1692049949
225,kittila,67.6647,24.8936,15.08,94,12,1.54,FI,1692049949
226,chernyshevskiy,63.0128,112.4714,13.13,95,100,1.62,RU,1692049760
227,bouca,6.5105,18.2733,22.54,94,100,0.78,CF,1692049949
228,remire-montjoly,4.9167,-52.2667,25.02,94,0,2.06,GF,1692049950
229,touros,-5.1989,-35.4608,24.51,81,58,7.3,BR,1692049766
230,isola di capo rizzuto,38.96,17.0933,23.44,61,0,2.42,IT,1692049950
231,uturoa,-16.7333,-151.4333,25.59,74,75,6.98,PF,1692049776
232,paragominas,-2.9667,-47.4833,29.51,44,73,1.74,BR,1692049951
233,agat village,13.3886,144.6585,27.98,89,20,2.06,GU,1692049951
234,camrose,53.0168,-112.8353,27.73,34,45,5.24,CA,1692049951
235,enewetak,11.3474,162.3373,28.87,78,88,6.61,MH,1692049733
236,georgetown,5.4112,100.3354,27.19,99,40,1.54,MY,1692049492
237,kailua-kona,19.6406,-155.9956,30.15,71,0,6.17,US,1692049755
238,kill devil hills,36.0307,-75.676,31.66,72,0,6.17,US,1692049664
239,sisimiut,66.9395,-53.6735,7.79,83,89,1.11,GL,1692049952
240,tshabong,-26.05,22.45,11.16,14,43,1.5,BW,1692049952
241,newnham,-41.3833,147.1333,0.37,100,8,3.6,AU,1692049952
242,ghat,24.9647,10.1728,33.24,20,29,3.71,LY,1692049953
243,lodja,-3.4833,23.4333,23.05,78,88,1.11,CD,1692049953
244,kondopoga,62.2057,34.2614,16.82,96,90,2.31,RU,1692049953
245,alaghsas,17.0187,8.0168,27.92,59,97,3.61,NE,1692049953
246,dunedin,-45.8742,170.5036,8.37,58,50,1.34,NZ,1692049954
247,villa sandino,12.0483,-84.9936,32.65,74,39,5.12,NI,1692049954
248,xichang,27.8964,102.2634,19.69,89,46,0.94,CN,1692049954
249,beau vallon,-20.4189,57.6953,23.13,78,40,3.6,MU,1692049763
250,puerto deseado,-47.7503,-65.8938,7.11,81,100,2.26,AR,1692049955
251,sosnytsya,51.5239,32.4999,19.28,65,25,2.4,UA,1692049955
252,vylkove,45.4021,29.586,22.95,65,0,4.21,UA,1692049955
253,thompson,55.7435,-97.8558,27.09,44,75,5.66,CA,1692049748
254,suihua,46.6406,126.9969,21.01,96,17,1.73,CN,1692049955
255,akwanga,8.9167,8.3833,21.49,94,97,1.05,NG,1692049956
256,quellon,-43.1167,-73.6167,11.53,92,100,6.88,CL,1692049956
257,amelia,42.5523,12.4182,22.18,56,0,1.04,IT,1692049956
258,richmond,37.5538,-77.4603,31.93,69,75,3.6,US,1692049741
259,mossendjo,-2.9506,12.7261,20.17,84,9,1.07,CG,1692049956
260,mugia,43.1041,-9.2179,18.84,90,29,1.86,ES,1692049765
261,phongsali,21.6833,102.1058,16.64,100,96,0.1,LA,1692049957
262,cururupu,-1.8283,-44.8683,25.13,84,53,2.23,BR,1692049957
263,jiuquan,39.7432,98.5174,21.49,43,45,1.28,CN,1692049957
264,vadso,70.0744,29.7487,16.49,94,40,0.0,NO,1692049793
265,waiuku,-37.25,174.75,15.11,86,56,3.11,NZ,1692049958
266,santa rosa misiones,-26.8667,-56.85,17.16,52,2,1.6,PY,1692049958
267,mutoko,-17.397,32.2268,13.64,50,0,1.39,ZW,1692049958
268,ancud,-41.8697,-73.8203,11.04,96,100,8.19,CL,1692049734
269,saipan,15.1355,145.701,27.58,100,40,4.12,MP,1692049773
270,lincheng,19.9078,109.6858,26.87,83,100,2.27,CN,1692049959
271,takoradi,4.8845,-1.7554,23.89,89,99,3.48,GH,1692049959
272,extrema,-22.8547,-46.3183,16.03,96,93,1.83,BR,1692049959
273,revda,56.801,59.9303,14.85,82,15,1.35,RU,1692049959
274,mount gambier,-37.8333,140.7667,3.19,93,7,2.17,AU,1692049749
275,hobyo,5.3505,48.5268,25.0,89,7,10.5,SO,1692049960
276,kingston,17.997,-76.7936,29.58,78,75,6.17,JM,1692049677
277,lebu,-37.6167,-73.65,12.17,85,100,2.76,CL,1692049751
278,gornopravdinsk,60.05,69.9,11.19,72,78,1.27,RU,1692049960
279,'ain deheb,34.8422,1.547,26.32,30,0,5.18,DZ,1692049960
280,nantucket,41.2835,-70.0995,25.64,68,0,4.12,US,1692049961
281,puerto lempira,15.2667,-83.7667,28.08,78,75,3.6,HN,1692049961
282,saint-pierre,-21.3393,55.4781,20.82,78,0,3.09,RE,1692049961
283,yung shue wan,22.2333,114.1167,28.75,86,69,2.96,HK,1692049961
284,utrik,11.2278,169.8474,28.77,80,34,7.28,MH,1692049755
285,aykhal,66.0,111.5,13.01,63,93,2.94,RU,1692049962
286,rach gia,10.0167,105.0833,28.15,75,68,7.02,VN,1692049962
287,igarka,67.4667,86.5833,13.14,75,23,3.53,RU,1692049962
288,vila do maio,15.1333,-23.2167,27.44,85,62,3.87,CV,1692049962
289,camacupa,-12.0167,17.4833,17.39,25,0,1.27,AO,1692049963
290,khodzha-maston,38.7446,68.627,12.68,38,0,2.03,TJ,1692049963
291,salinopolis,-0.6136,-47.3561,26.69,83,66,5.87,BR,1692049733
292,la ronge,55.1001,-105.2842,24.14,57,75,5.66,CA,1692049963
293,kargasok,59.0556,80.8572,12.37,88,100,2.25,RU,1692049963
294,yangjiang,21.85,111.9667,26.91,87,100,1.53,CN,1692049963
295,lekeitio,43.3666,-2.5007,21.94,90,89,1.26,ES,1692049964
296,ibresi,55.2961,47.0394,15.77,92,0,2.24,RU,1692049964
297,vila velha,-20.3297,-40.2925,21.97,94,75,1.54,BR,1692049964
298,conduaga,8.862,117.4893,25.42,85,82,0.84,PH,1692049964
299,naracoorte,-36.9579,140.7383,3.44,88,0,2.09,AU,1692049964
300,amga,60.8953,131.9608,15.4,98,100,1.28,RU,1692049965
301,jiangzi,28.95,89.6333,8.06,71,100,2.45,CN,1692049965
302,taskopru,41.5098,34.2141,23.32,53,21,2.3,TR,1692049965
303,san luis de la loma,17.2706,-100.8939,29.55,79,100,2.66,MX,1692049965
304,westport,41.1415,-73.3579,29.6,68,0,2.06,US,1692049913
305,zhezqazghan,47.7833,67.7667,17.68,33,10,3.03,KZ,1692049798
306,axim,4.8699,-2.2405,24.01,88,99,4.12,GH,1692049966
307,saskatoon,52.1168,-106.6345,31.99,27,75,3.09,CA,1692049775
308,prado,-17.3411,-39.2208,21.97,79,100,3.12,BR,1692049966
309,puerto carreno,6.189,-67.4859,26.99,78,40,2.57,CO,1692049967
310,cannonvale,-20.2833,148.7,18.66,75,24,1.78,AU,1692049967
311,bad oldesloe,53.8117,10.3742,20.2,85,47,0.97,DE,1692049967
312,tadine,-21.55,167.8833,20.59,56,15,3.15,NC,1692049967
313,tabas,33.5959,56.9244,23.76,17,0,2.54,IR,1692049967
314,bad kreuznach,49.8333,7.8667,22.54,85,24,1.0,DE,1692049968
315,las tablas,7.7667,-80.2833,27.32,99,100,1.46,PA,1692049968
316,kloulklubed,7.0419,134.2556,26.28,79,100,4.55,PW,1692049968
317,east london,-33.0153,27.9116,15.99,70,99,7.07,ZA,1692049726
318,isafjordur,66.0755,-23.124,12.15,55,100,1.08,IS,1692049718
319,arteche,12.2645,125.4048,25.03,90,93,1.41,PH,1692049782
320,berbera,10.4396,45.0143,31.76,51,3,0.33,SO,1692049969
321,shunyi,40.125,116.6453,23.97,100,0,1.0,CN,1692049969
322,kavieng,-2.5744,150.7967,26.47,82,99,1.89,PG,1692049969
323,churachandpur,24.3333,93.6667,20.07,100,66,0.69,IN,1692049969
324,plymouth,41.8334,-70.8328,29.01,64,40,5.14,US,1692049970
325,darwin,-12.4611,130.8418,21.99,83,40,4.12,AU,1692049970
326,kiruna,67.8557,20.2251,10.51,93,61,1.03,SE,1692049970
327,christchurch,-43.5333,172.6333,9.71,68,28,1.54,NZ,1692049746
328,portland,45.5234,-122.6762,42.75,24,0,6.17,US,1692049964
329,pedregal,8.3667,-82.4333,30.05,72,40,3.09,PA,1692049971
330,essaouira,31.5125,-9.77,25.72,75,0,2.06,MA,1692049971
331,santa ana de yacuma,-13.75,-65.4333,26.97,47,75,2.06,BO,1692049971
332,hastings,50.8552,0.5729,18.32,42,79,4.8,GB,1692049971
333,kourou,5.1552,-52.6478,25.03,90,80,2.01,GF,1692049971
334,ndofane,13.9167,-15.9333,29.89,84,100,3.99,SN,1692049972
335,alofi,-19.0595,-169.9187,25.94,89,75,5.14,NU,1692049793
336,fort collins,40.5853,-105.0844,27.7,35,0,3.09,US,1692049934
337,qalat,32.1058,66.9083,21.87,15,6,2.87,AF,1692049972
338,san antonio de pale,-1.4014,5.6325,24.54,82,99,5.34,GQ,1692049754
339,souillac,-20.5167,57.5167,23.21,78,40,3.6,MU,1692049972
340,nova sintra,14.8667,-24.7167,24.69,83,100,5.52,CV,1692049761
341,broken hill,-31.95,141.4333,8.5,75,2,4.36,AU,1692049973
342,javanrud,34.7961,46.5172,22.92,34,0,2.66,IR,1692049973
343,rongelap,11.1635,166.8941,28.88,74,42,6.27,MH,1692049973
344,yankton,42.8711,-97.3973,25.06,57,75,8.23,US,1692049973
345,harper,4.375,-7.7169,24.19,78,100,3.9,LR,1692049782
346,bodaybo,57.8506,114.1933,17.08,90,57,0.81,RU,1692049974
347,patong,7.8961,98.2966,27.79,79,100,8.73,TH,1692049974
348,olmos,-5.9847,-79.7453,26.61,50,100,4.2,PE,1692049974
349,kazanskoye,55.6448,69.235,11.02,77,32,3.18,RU,1692049974
350,kutina,45.475,16.7819,19.36,63,0,1.42,HR,1692049975
351,vidyayevo,69.3191,32.8049,16.26,95,100,3.18,RU,1692049975
352,tocopilla,-22.092,-70.1979,20.32,66,21,2.58,CL,1692049975
353,chenzhou,25.8,113.0333,24.45,95,91,0.88,CN,1692049975
354,visby,57.6409,18.296,17.68,82,40,4.12,SE,1692049975
355,preobrazheniye,42.9019,133.9064,18.98,95,100,5.99,RU,1692049976
356,djambala,-2.5447,14.7533,24.97,55,75,1.22,CG,1692049976
357,grain valley,39.015,-94.1986,25.24,67,100,5.14,US,1692049682
358,aioun,16.6614,-9.6149,33.97,47,72,5.06,MR,1692049976
359,woodward,36.4337,-99.3904,29.42,38,40,4.63,US,1692049976
360,nema,57.5067,50.5011,16.42,87,81,2.4,RU,1692049977
361,banda aceh,5.5577,95.3222,25.03,88,100,4.47,ID,1692049977
362,nabire,-3.3667,135.4833,24.73,91,83,1.16,ID,1692049977
363,el calafate,-50.3408,-72.2768,1.1,98,100,1.98,AR,1692049977
364,srbica,42.7467,20.7886,20.5,55,0,3.49,XK,1692049977
365,leticia,-4.2153,-69.9406,27.03,78,75,1.54,CO,1692049978
366,bembereke,10.2283,2.6634,20.95,98,99,2.04,BJ,1692049827
367,tangalle,6.024,80.7911,26.09,90,64,4.19,LK,1692049978
368,nadi,-17.8,177.4167,27.0,69,20,0.0,FJ,1692049734
369,tommot,58.9564,126.2925,15.61,96,100,4.2,RU,1692049978
370,derzhavinsk,51.1,66.3167,17.07,60,75,4.09,KZ,1692049979
371,zanzibar,-6.1639,39.1979,23.48,89,10,4.35,TZ,1692049979
372,ta`u,-14.2336,-169.5144,27.5,75,62,8.53,AS,1692049979
373,harstad,68.799,16.5293,14.66,98,98,3.58,NO,1692049979
374,mugango,-1.6833,33.7,24.49,53,96,2.37,TZ,1692049979
375,mil'kovo,55.6078,37.7956,19.22,87,96,2.67,RU,1692049980
376,antsiranana,-12.2787,49.2917,22.74,85,19,5.92,MG,1692049980
377,las khorey,11.1595,48.1967,32.73,46,14,3.83,SO,1692049980
378,luanco,43.6152,-5.7934,21.37,83,89,1.52,ES,1692049980
379,yoichi,43.2039,140.7703,23.12,77,80,1.37,JP,1692049980
380,proddatur,14.7333,78.55,28.55,57,100,5.02,IN,1692049981
381,saint-francois,46.4154,3.9054,22.69,83,0,1.54,FR,1692049765
382,tazovsky,67.4667,78.7,9.37,98,96,3.72,RU,1692049731
383,marka,1.7159,44.7717,24.72,89,34,6.2,SO,1692049981
384,olinda,-8.0089,-34.8553,23.85,88,75,3.6,BR,1692049789
385,joshimath,30.5667,79.5667,21.09,95,99,0.35,IN,1692049982
386,anna regina,7.2644,-58.5077,27.62,76,2,3.15,GY,1692049982
387,masterton,-40.9597,175.6575,8.27,68,17,4.12,NZ,1692049982
388,pierre,44.3683,-100.351,26.59,48,40,4.63,US,1692049956
389,aleksandrovsk-sakhalinskiy,50.8975,142.1561,16.29,70,100,3.65,RU,1692049983
390,corner brook,48.9667,-57.9484,16.09,94,100,2.2,CA,1692049747
391,rawlins,41.7911,-107.2387,24.94,13,0,2.06,US,1692049923
392,labrador city,52.9463,-66.9114,16.95,59,75,4.12,CA,1692049784
393,kralendijk,12.15,-68.2667,30.99,70,40,8.23,BQ,1692049737
394,nova vicosa,-17.8919,-39.3719,22.35,77,87,3.21,BR,1692049984
395,awjilah,29.1081,21.2869,26.18,53,0,6.36,LY,1692049771
396,belmonte,-15.8631,-38.8828,22.65,78,100,4.56,BR,1692049984
397,chakia,26.4167,85.05,27.19,82,100,2.19,IN,1692049984
398,rocha,-34.4833,-54.3333,13.47,64,0,3.0,UY,1692049984
399,surfside,25.8784,-80.1256,34.45,68,20,7.2,US,1692049985
400,antigonish,45.6169,-61.9986,23.64,91,59,3.14,CA,1692049944
401,balikpapan,-1.2675,116.8289,26.55,94,40,2.57,ID,1692049985
402,huntingburg,38.2989,-86.955,28.83,74,75,5.66,US,1692049893
403,howard springs,-12.497,131.047,21.95,79,11,2.42,AU,1692049986
404,arawa,-6.2132,155.5367,27.38,82,72,1.45,PG,1692049986
405,alice springs,-23.7,133.8833,10.75,58,24,2.06,AU,1692049986
406,bamboo flat,11.7,92.7167,28.05,83,75,3.09,IN,1692049762
407,aquidauana,-20.4711,-55.7872,26.0,48,100,1.85,BR,1692049986
408,kurchatov,51.6601,35.6521,19.23,82,31,1.96,RU,1692049987
409,rio grande,-32.035,-52.0986,15.06,74,5,3.79,BR,1692049792
410,yemel'yanovo,56.1681,92.6767,11.45,93,40,2.0,RU,1692049987
411,san luis,-33.295,-66.3356,20.77,20,80,0.79,AR,1692049987
412,haimen,23.1935,116.6142,26.94,89,56,4.37,CN,1692049988
413,yaring,6.8662,101.3689,24.71,89,89,3.94,TH,1692049988
414,polyarnyy,69.1989,33.4478,15.97,95,100,3.43,RU,1692049988
415,nsanje,-16.92,35.262,21.16,73,0,1.66,MW,1692049842
416,urangan,-25.3,152.9,18.65,70,0,6.49,AU,1692049767
417,quepos,9.4236,-84.1652,25.54,87,100,0.26,CR,1692049989
418,ostersund,63.1792,14.6357,13.25,100,20,3.58,SE,1692049989
419,broome,42.2506,-75.833,25.26,76,0,2.57,US,1692049989
420,east ballina,-28.8667,153.5833,15.44,88,90,2.4,AU,1692049989
421,pisco,-13.7,-76.2167,21.03,73,0,4.12,PE,1692049756
422,drayton valley,53.2168,-114.9854,23.85,59,52,2.77,CA,1692049656
423,belem do brejo do cruz,-6.1886,-37.5358,28.09,51,52,11.5,BR,1692049990
424,tual,-5.6667,132.75,25.65,76,95,8.8,ID,1692049990
425,indre arna,60.4247,5.4764,16.04,91,100,0.59,NO,1692049990
426,carnot,4.9409,15.8665,21.81,92,100,0.91,CF,1692049991
427,kuusamo,65.9667,29.1833,13.67,97,51,3.45,FI,1692049991
428,dakhla,23.6848,-15.958,23.01,83,0,10.8,EH,1692049991
429,oshkosh,44.0247,-88.5426,18.05,91,100,7.2,US,1692049715
430,seydi,39.4816,62.9137,20.19,19,0,4.95,TM,1692049991
431,port douglas,-16.4833,145.4667,20.55,68,79,1.62,AU,1692049992
432,izhevsk,56.85,53.2333,18.4,75,100,1.23,RU,1692049732
433,damghan,36.1683,54.348,20.88,23,0,3.63,IR,1692049992
434,new norfolk,-42.7826,147.0587,2.62,87,7,1.04,AU,1692049740
435,dapa,9.7594,126.0531,27.02,78,97,1.0,PH,1692049993
436,tonala,20.6167,-103.2333,29.17,37,47,0.14,MX,1692049993
437,queenstown,-31.8976,26.8753,9.2,75,53,2.02,ZA,1692049994
438,pathein,16.7833,94.7333,26.04,87,97,3.33,MM,1692049994
439,yeongdong,36.175,127.7764,25.32,92,9,0.46,KR,1692049994
440,port lincoln,-34.7333,135.8667,10.78,76,0,3.54,AU,1692049741
441,myrhorod,49.9685,33.6089,19.66,59,0,1.54,UA,1692049994
442,kirakira,-10.4544,161.9205,26.8,84,36,4.54,SB,1692049733
443,lihue,21.9789,-159.3672,29.77,62,20,5.66,US,1692049543
444,villa canas,-34.0057,-61.6076,18.29,10,85,4.03,AR,1692049995
445,kroya,-7.6331,109.2461,21.65,93,70,1.83,ID,1692049995
446,inarajan village,13.2736,144.7484,28.0,92,100,4.35,GU,1692049996
447,opuwo,-18.0607,13.84,17.73,30,12,2.04,NA,1692049996
448,pudasjarvi,65.3833,26.9167,12.01,97,48,2.13,FI,1692049996
449,san isidro de curuguaty,-24.5167,-55.7,20.15,68,96,1.13,PY,1692049997
450,noosa heads,-26.3833,153.15,17.41,49,3,3.0,AU,1692049997
451,huarmey,-10.0681,-78.1522,21.83,75,11,4.49,PE,1692049771
452,goulburn,-34.75,149.7167,4.88,99,96,1.34,AU,1692049791
453,mersrags,57.3354,23.1246,17.08,83,100,0.93,LV,1692049998
454,olyokminsk,60.3736,120.4264,15.05,88,38,1.91,RU,1692049998
455,salalah,17.0151,54.0924,27.05,94,100,1.54,OM,1692049998
456,magadan,59.5667,150.8,15.85,90,98,2.79,RU,1692049745
457,hassi messaoud,31.6804,6.0729,33.92,24,0,2.06,DZ,1692049999
458,maintirano,-18.0667,44.0167,22.77,78,15,4.02,MG,1692049999
459,brookings,44.3114,-96.7984,23.43,47,0,5.66,US,1692049999
460,fisterra,42.9049,-9.2629,18.75,91,35,2.34,ES,1692049999
461,maceio,-9.6658,-35.7353,24.69,73,40,3.6,BR,1692049999
462,port alfred,-33.5906,26.891,15.91,62,88,8.77,ZA,1692049756
463,salekhard,66.53,66.6019,14.93,91,96,2.47,RU,1692049765
464,coyah,9.75,-13.4167,25.53,94,100,0.65,GN,1692050000
465,barra de santo antonio,-9.4047,-35.5072,24.6,76,4,5.29,BR,1692049781
466,klyuchi,52.2667,79.1667,11.63,89,100,3.91,RU,1692049718
467,kangding,30.0513,101.9603,16.59,99,100,1.24,CN,1692050001
468,sinabang,2.4803,96.3801,25.05,84,97,1.44,ID,1692050001
469,zaozersk,69.4005,32.4476,15.96,94,100,2.87,RU,1692050001
470,lorengau,-2.0226,147.2712,24.57,92,100,1.23,PG,1692049786
471,chegdomyn,51.1167,133.0167,19.7,94,88,0.86,RU,1692050001
472,wellington,-41.2866,174.7756,11.99,74,4,5.14,NZ,1692049812
473,boende,-0.2167,20.8667,24.22,82,73,1.14,CD,1692050002
474,hami,42.8,93.45,22.5,30,82,7.91,CN,1692049795
475,lashio,22.9333,97.75,20.61,100,100,0.15,MM,1692050002
476,mitu,1.1983,-70.1733,25.23,96,81,0.73,CO,1692050002
477,putla villa de guerrero,17.0333,-97.9333,26.5,85,99,1.54,MX,1692050003
478,shakawe,-18.3667,21.85,16.39,28,0,0.67,BW,1692050003
479,port hedland,-20.3167,118.5667,14.03,94,58,1.54,AU,1692050003
480,hinigaran,10.2667,122.9,25.23,86,75,1.54,PH,1692050003
481,sao gabriel da cachoeira,-0.1303,-67.0892,25.36,93,58,1.08,BR,1692050004
482,porto novo,6.4965,2.6036,24.9,87,90,2.83,BJ,1692050004
483,horta,38.5333,-28.6333,23.9,90,17,1.79,PT,1692050004
484,escanaba,45.7453,-87.0646,21.65,64,20,2.57,US,1692050005
485,shilka,51.85,116.0333,19.95,68,94,0.54,RU,1692050005
486,nizhnesortymskiy,62.4397,71.7603,13.0,65,16,2.53,RU,1692050005
487,birjand,32.8663,59.2211,17.26,17,0,6.17,IR,1692049805
488,gamba,-2.65,10.0,21.29,94,57,2.69,GA,1692050006
489,jayapura,-2.5333,140.7,25.66,93,79,2.12,ID,1692050006
490,la'ie,21.6477,-157.9253,30.98,64,7,5.8,US,1692049796
491,nevers,46.9167,3.3333,18.02,97,87,1.07,FR,1692050006
492,abbeville,50.1,1.8333,16.98,72,99,1.45,FR,1692049847
493,cidreira,-30.1811,-50.2056,13.44,83,75,3.61,BR,1692050007
494,tidjikja,18.5564,-11.4271,33.62,35,100,6.69,MR,1692050007
495,maizuru,35.45,135.3333,26.54,87,100,6.81,JP,1692050007
496,tazacorte,28.629,-17.9293,23.54,83,15,6.69,ES,1692049743
497,rocky mountain house,52.3668,-114.9188,29.06,34,21,2.57,CA,1692049770
498,zouerate,22.7187,-12.4521,38.49,8,0,4.67,MR,1692050008
499,qusmuryn,52.4503,64.6311,18.9,62,100,5.71,KZ,1692050008
500,ad dindar,13.2,34.1667,23.41,85,100,4.68,SD,1692050008
501,harlingen,26.1906,-97.6961,38.36,64,20,6.69,US,1692050008
502,coalcoman de vazquez pallares,18.7833,-103.15,26.47,78,74,0.93,MX,1692050009
503,general acha,-37.377,-64.6043,19.91,25,100,4.68,AR,1692050009
504,island harbour,50.724,-1.2758,17.18,93,63,0.89,GB,1692050009
505,neelankarai,12.9455,80.2575,26.13,94,75,1.54,IN,1692050009
506,yeraliyev,43.2,51.65,27.4,32,0,7.65,KZ,1692050010
507,machico,32.7,-16.7667,24.35,73,40,6.69,PT,1692050010
508,la gi,10.6667,107.7833,25.85,88,29,3.21,VN,1692050010
509,sao domingos do maranhao,-5.5758,-44.3853,28.24,30,15,2.11,BR,1692050010
510,khorinsk,52.1657,109.7726,15.11,83,43,1.39,RU,1692050011
511,holualoa,19.6228,-155.9522,28.08,71,0,6.17,US,1692049757
512,floro,61.5996,5.0328,15.04,88,100,3.09,NO,1692050011
513,lluta,-16.0147,-72.0142,11.59,29,0,3.45,PE,1692050012
514,santo amaro da imperatriz,-27.6881,-48.7786,17.9,99,1,0.58,BR,1692050012
515,darovskoy,58.77,47.9564,16.06,95,59,1.03,RU,1692050012
516,chibougamau,49.9168,-74.3659,18.79,82,75,3.6,CA,1692049777
517,ceeldheer,3.8488,47.1806,24.54,91,36,7.27,SO,1692050013
518,yunak,38.8142,31.7322,27.59,24,63,1.32,TR,1692050013
519,necochea,-38.5473,-58.7368,13.03,70,66,3.14,AR,1692050013
520,labasa,-16.4167,179.3833,26.7,81,73,3.85,FJ,1692050013
521,chui,-33.6971,-53.4616,13.28,66,0,3.42,UY,1692050014
522,north bend,43.4065,-124.2243,37.36,60,40,6.17,US,1692050014
523,crane,31.3974,-102.3501,37.82,20,60,5.19,US,1692049721
524,la paz,-16.5,-68.15,11.99,44,75,4.63,BO,1692050014
525,weno,7.4515,151.8468,27.97,89,100,3.09,FM,1692049782
526,buurhakaba,2.8026,44.0781,23.55,83,19,4.52,SO,1692050015
527,arkalyk,50.2486,66.9114,15.71,49,64,2.82,KZ,1692050015
528,acarau,-2.8856,-40.12,25.78,79,60,7.65,BR,1692049542
529,kerikeri,-35.2268,173.9474,10.51,91,50,1.57,NZ,1692050015
530,miles city,46.4083,-105.8406,29.54,20,0,2.57,US,1692049762
531,bolotnoye,55.6717,84.3981,9.61,98,100,3.36,RU,1692050016
532,dalnegorsk,44.5604,135.5701,16.65,99,100,0.72,RU,1692050016
533,santa elena de uairen,4.6167,-61.1333,21.7,84,89,1.2,VE,1692050016
534,poronaysk,49.2167,143.1167,15.26,89,100,3.83,RU,1692050017
535,moree,-29.4667,149.85,15.14,70,97,2.58,AU,1692050017
536,cestos city,5.46,-9.5828,24.65,82,100,5.66,LR,1692050017
537,takayama,36.1333,137.25,24.09,89,100,0.68,JP,1692050017
538,sirte,31.2089,16.5887,26.23,62,0,6.82,LY,1692050018
539,quebo,11.3333,-14.9333,24.74,94,100,1.11,GW,1692050018
540,nishinoomote,30.7333,131.0,27.19,88,100,10.15,JP,1692050018
541,pedernales,18.0384,-71.744,33.09,47,33,5.75,DO,1692050019
542,ierapetra,35.01,25.7353,26.75,68,0,1.34,GR,1692050019
543,brindisi,40.5833,17.6667,25.99,63,5,1.93,IT,1692050019
544,keetmanshoop,-26.5833,18.1333,13.51,21,9,1.54,NA,1692050019
545,selfoss,63.9331,-20.9971,11.69,87,96,2.48,IS,1692050019
546,xining,36.6167,101.7667,14.39,94,100,1.18,CN,1692050020
547,javea,38.7833,0.1667,26.93,81,0,2.68,ES,1692050020
548,priob'ye,62.5206,65.5964,17.35,80,100,0.61,RU,1692050020
549,singkil,-7.9855,111.4161,20.47,94,76,1.81,ID,1692050020
550,baldeogarh,24.755,79.0681,25.28,80,92,3.5,IN,1692050020
551,makoua,0.0069,15.6333,23.41,86,54,0.55,CG,1692050021
552,susanville,40.4163,-120.653,32.68,23,0,4.12,US,1692050021
553,undurkhaan,47.3194,110.6556,15.17,89,3,2.01,MN,1692050021
554,kavaratti,10.5669,72.642,27.35,71,53,2.38,IN,1692049753
555,ilek,51.5271,53.3831,26.17,25,99,3.33,RU,1692050022
556,ottawa,45.4112,-75.6981,24.02,65,75,4.12,CA,1692049755
557,vernon,50.2581,-119.2691,38.75,17,0,1.54,CA,1692049911
558,kunszentmiklos,47.027,19.1258,23.27,42,0,1.73,HU,1692050022
559,strathmore,51.0501,-113.3852,34.92,22,2,3.6,CA,1692050022
560,nuku'alofa,-21.1333,-175.2,24.19,88,75,4.12,TO,1692050023
561,buka,40.8108,69.1986,14.27,34,0,2.49,UZ,1692049787
562,cumnock,55.4544,-4.2664,15.44,95,93,1.37,GB,1692050023
563,bemidji,47.4736,-94.8803,24.38,45,0,3.09,US,1692050023
564,itoman,26.1247,127.6694,29.21,97,40,3.6,JP,1692050023
565,svetlyy,54.675,20.1347,19.42,65,60,3.86,RU,1692050024
566,xiangyang,32.0422,112.1448,23.47,81,3,1.21,CN,1692050024
567,bosansko grahovo,44.1794,16.3639,18.69,75,0,2.05,BA,1692050024
568,bengkulu,-3.8004,102.2655,24.47,86,100,2.45,ID,1692049789
569,qarazhal,48.0078,70.7903,14.74,33,80,2.95,KZ,1692050024
570,tocaima,4.4582,-74.6343,35.76,30,7,1.53,CO,1692050025
571,fortuna,40.5982,-124.1573,20.51,78,20,6.69,US,1692050025
572,tchintabaraden,15.8969,5.7985,31.0,43,100,4.87,NE,1692050025
573,natal,-5.795,-35.2094,23.36,94,75,3.09,BR,1692049794
574,kibre mengist,5.8833,38.9833,17.51,68,100,1.4,ET,1692050025
575,aasiaat,68.7098,-52.8699,4.16,95,100,0.64,GL,1692050026
576,kruisfontein,-34.0033,24.7314,11.6,75,89,5.65,ZA,1692049733
577,chom thong,18.4174,98.6743,26.14,96,99,1.37,TH,1692050027
578,kuanda,56.3161,116.0806,17.24,80,100,0.49,RU,1692050027
579,yuxi,24.355,102.5422,16.92,95,13,1.26,CN,1692049775
580,visakhapatnam,17.69,83.2093,28.42,74,99,1.17,IN,1692050027
581,manay,7.215,126.5397,25.31,88,100,2.63,PH,1692050028
582,fauske,67.2588,15.3918,14.02,94,96,1.41,NO,1692050028
583,luderitz,-26.6481,15.1594,14.02,66,0,2.72,NA,1692049741
584,colonia,50.9333,6.95,23.87,77,0,2.06,DE,1692049731
585,papao,-17.75,-149.55,27.82,79,31,5.58,PF,1692050028
586,fort st. john,56.2499,-120.8529,22.94,31,75,4.12,CA,1692050029
587,arno,60.1167,18.6333,15.99,88,93,3.28,SE,1692050029
588,el matama,16.7095,33.3565,35.3,17,7,2.73,SD,1692050029
589,chilibre,9.15,-79.6167,29.74,68,99,1.12,PA,1692050029
